{"macros":[{"name":"TRIÂNGULO DO NORTE","lat":-18.927184162815085,"lng":-48.63466803280763},{"name":"CENTRO","lat":-19.152652340869544,"lng":-44.137297504876784},{"name":"LESTE DO SUL","lat":-20.212573198567974,"lng":-42.303372968515184},{"name":"VALE DO AÇO","lat":-19.49325303072661,"lng":-42.3913408730152},{"name":"LESTE","lat":-18.80448552589931,"lng":-41.85261189243968},{"name":"TRIÂNGULO DO SUL","lat":-19.90116675132631,"lng":-48.14080943957705},{"name":"OESTE","lat":-20.14809574070009,"lng":-44.93411457484525},{"name":"NORDESTE","lat":-17.005757082932853,"lng":-41.17626583628701},{"name":"SUL","lat":-22.027111689380995,"lng":-44.71131307467901},{"name":"EXTREMO SUL","lat":-22.3068714937538,"lng":-46.01506877981814},{"name":"SUDESTE","lat":-21.539119715608546,"lng":-42.888650281061004},{"name":"SUDOESTE","lat":-20.908578503866963,"lng":-46.41103007594947},{"name":"CENTRO SUL","lat":-21.040954475521506,"lng":-44.01428924457545},{"name":"JEQUITINHONHA","lat":-17.73813678603728,"lng":-43.15349584004138},{"name":"NOROESTE","lat":-17.228189282093236,"lng":-46.32995845363994},{"name":"NORTE","lat":-16.124687495623196,"lng":-43.93605267721895}],"micros":[{"microName":"PATROCÍNIO/MONTE CARMELO","macro":"TRIÂNGULO DO NORTE","lat":-18.66482745043249,"lng":-47.280967273797195,"area":10530479465.921064},{"microName":"SETE LAGOAS","macro":"CENTRO","lat":-19.087744098153685,"lng":-44.82207413056727,"area":14927760349.514467},{"microName":"MANHUAÇU","macro":"LESTE DO SUL","lat":-20.052358467805977,"lng":-41.84232871366891,"area":7426782061.723392},{"microName":"PONTE NOVA","macro":"LESTE DO SUL","lat":-20.246155357647282,"lng":-42.7849116051816,"area":5871649373.897614},{"microName":"IPATINGA","macro":"VALE DO AÇO","lat":-19.210739497594794,"lng":-42.45739050639349,"area":3635890164.248817},{"microName":"PEÇANHA/SÃO JOÃO EVANGELISTA/SANTA MARIA DO SUAÇUÍ","macro":"LESTE","lat":-18.275777092071728,"lng":-42.49758513548646,"area":5318959657.573217},{"microName":"UBERABA","macro":"TRIÂNGULO DO SUL","lat":-19.751756713019667,"lng":-47.92592393680667,"area":12470531018.339706},{"microName":"CAMPO BELO","macro":"OESTE","lat":-20.836893354708973,"lng":-45.324840205611096,"area":2658379535.9571404},{"microName":"ÁGUAS FORMOSAS","macro":"NORDESTE","lat":-17.1493281677712,"lng":-40.860643877242374,"area":4153219867.594196},{"microName":"PEDRA AZUL","macro":"NORDESTE","lat":-15.843897292460774,"lng":-41.303858656962404,"area":4260733033.656808},{"microName":"RESPLENDOR","macro":"LESTE","lat":-19.326945442263895,"lng":-41.2730681904662,"area":5201244412.923334},{"microName":"SÃO LOURENÇO","macro":"SUL","lat":-22.050744190716355,"lng":-44.89216875229371,"area":6357418596.702442},{"microName":"POÇOS DE CALDAS","macro":"EXTREMO SUL","lat":-21.949357558798802,"lng":-46.435484511727665,"area":2359024053.581543},{"microName":"ALÉM PARAÍBA","macro":"SUDESTE","lat":-21.767828223675235,"lng":-42.63743452697043,"area":1248318670.677383},{"microName":"ALFENAS/MACHADO","macro":"SUDOESTE","lat":-21.4693583675612,"lng":-46.01499601930656,"area":5938857896.768415},{"microName":"BARBACENA","macro":"CENTRO SUL","lat":-21.229739044064818,"lng":-43.72754930985712,"area":4388063381.425168},{"microName":"ALMENARA/JACINTO","macro":"NORDESTE","lat":-16.340409458328466,"lng":-40.67426775826545,"area":14544517159.4106},{"microName":"GOVERNADOR VALADARES","macro":"LESTE","lat":-18.84517399282339,"lng":-41.94644224276292,"area":9774858429.930882},{"microName":"PASSOS","macro":"SUDOESTE","lat":-20.828774755950146,"lng":-46.42311209460269,"area":4711874151.42994},{"microName":"SERRO","macro":"JEQUITINHONHA","lat":-18.726044006699997,"lng":-43.42195850235711,"area":3802597353.378514},{"microName":"LIMA DUARTE","macro":"SUDESTE","lat":-21.921368025030674,"lng":-44.087243076336506,"area":5274855416.363896},{"microName":"TEÓFILO OTONI/MALACACHETA","macro":"NORDESTE","lat":-17.728901324267216,"lng":-41.60841211943202,"area":11399917171.519222},{"microName":"CORONEL FABRICIANO/TIMÓTEO","macro":"VALE DO AÇO","lat":-19.6550695580242,"lng":-42.70124744379616,"area":2482839651.0981307},{"microName":"MURIAÉ","macro":"SUDESTE","lat":-21.042730199481166,"lng":-42.38754498317414,"area":2638269122.728693},{"microName":"SANTOS DUMONT","macro":"SUDESTE","lat":-21.42861777791947,"lng":-43.509429890882714,"area":855805747.9586153},{"microName":"ARAÇUAÍ","macro":"JEQUITINHONHA","lat":-16.851574977110086,"lng":-42.17457101073997,"area":5275359077.509395},{"microName":"UBERLÂNDIA/ARAGUARI","macro":"TRIÂNGULO DO NORTE","lat":-18.959901889280765,"lng":-48.5405641564998,"area":18787852075.313644},{"microName":"VIÇOSA","macro":"LESTE DO SUL","lat":-20.704595973952287,"lng":-42.8071104694429,"area":1904369950.9730537},{"microName":"SÃO GOTARDO","macro":"NOROESTE","lat":-19.069922097203413,"lng":-46.04685440000597,"area":6354264458.779533},{"microName":"DIVINÓPOLIS","macro":"OESTE","lat":-20.240407896047767,"lng":-44.95442480899527,"area":4014120829.6795206},{"microName":"ARAXÁ","macro":"TRIÂNGULO DO SUL","lat":-19.56086051875408,"lng":-46.878721030457775,"area":9956619113.005854},{"microName":"GUAXUPÉ","macro":"SUDOESTE","lat":-21.31411043988581,"lng":-46.5621094149854,"area":2424021629.887368},{"microName":"LAGOA DA PRATA/SANTO ANTÔNIO DO MONTE","macro":"OESTE","lat":-20.13641768265502,"lng":-45.38357561823469,"area":2607839882.907777},{"microName":"LEOPOLDINA/CATAGUASES","macro":"SUDESTE","lat":-21.44939138720938,"lng":-42.61260805025642,"area":2841574292.771728},{"microName":"TURMALINA/MINAS NOVAS/CAPELINHA","macro":"JEQUITINHONHA","lat":-17.354863706659323,"lng":-42.577854161006755,"area":6323211874.970132},{"microName":"UNAÍ/PARACATU","macro":"NOROESTE","lat":-16.152362466746595,"lng":-46.44813634530778,"area":40749635862.67002},{"microName":"CURVELO","macro":"CENTRO","lat":-18.445685468130268,"lng":-44.52868804840899,"area":15679052277.164173},{"microName":"FORMIGA","macro":"OESTE","lat":-20.180271057667376,"lng":-45.887346005382106,"area":6121079895.733064},{"microName":"ITABIRA","macro":"CENTRO","lat":-19.56236346130022,"lng":-43.25841681383444,"area":5973856865.340102},{"microName":"SÃO JOÃO DEL REI","macro":"CENTRO SUL","lat":-21.154644380088143,"lng":-44.37079292403656,"area":6926967037.279343},{"microName":"JOÃO MONLEVADE","macro":"CENTRO","lat":-19.867876547809782,"lng":-43.00942245309797,"area":1692207860.7898123},{"microName":"JUIZ DE FORA","macro":"SUDESTE","lat":-21.76478243348781,"lng":-43.351873914384996,"area":3505260243.39827},{"microName":"BELO HORIZONTE/NOVA LIMA/SANTA LUZIA","macro":"CENTRO","lat":-19.85735535144103,"lng":-43.84708758773405,"area":4440260264.948628},{"microName":"TAIOBEIRAS","macro":"NORTE","lat":-15.52967899993355,"lng":-42.20752091260103,"area":11886983714.342333},{"microName":"BETIM","macro":"CENTRO","lat":-20.053480479067474,"lng":-44.27498139006058,"area":3679689709.233268},{"microName":"SÃO JOÃO NEPOMUCENO/BICAS","macro":"SUDESTE","lat":-21.691904486608607,"lng":-43.01246185843842,"area":1571422863.699857},{"microName":"TRÊS PONTAS","macro":"SUL","lat":-21.160722668280883,"lng":-45.580661873382624,"area":2399264237.9249883},{"microName":"BOCAIÚVA","macro":"NORTE","lat":-17.393034936009226,"lng":-43.829551783446306,"area":8715653300.332178},{"microName":"BOM DESPACHO","macro":"OESTE","lat":-19.603612552447668,"lng":-45.490969942019255,"area":5743336265.495721},{"microName":"CARATINGA","macro":"VALE DO AÇO","lat":-19.67445348189068,"lng":-42.10993065892727,"area":3849567324.2020893},{"microName":"POUSO ALEGRE","macro":"EXTREMO SUL","lat":-22.340278513511432,"lng":-46.07339660201631,"area":7972875188.388502},{"microName":"JANUÁRIA","macro":"NORTE","lat":-15.217419474949347,"lng":-44.72202251000438,"area":15012230166.217178},{"microName":"FRANCISCO SÁ","macro":"NORTE","lat":-16.510405288505666,"lng":-43.14708595983445,"area":10593479892.384245},{"microName":"JOÃO PINHEIRO","macro":"NOROESTE","lat":-17.505787121074523,"lng":-45.976609852826684,"area":14495572337.36701},{"microName":"BRASÍLIA DE MINAS","macro":"NORTE","lat":-16.05364766078982,"lng":-44.27548067279268,"area":7273600439.858469},{"microName":"UBÁ","macro":"SUDESTE","lat":-21.069742851645213,"lng":-43.00751475174937,"area":4371219840.914691},{"microName":"ITAJUBÁ","macro":"EXTREMO SUL","lat":-22.491166208501433,"lng":-45.54877433658932,"area":3114950318.1401625},{"microName":"PIRAPORA","macro":"NORTE","lat":-17.282657548032663,"lng":-45.06541380360433,"area":17658783695.90731},{"microName":"ITUIUTABA","macro":"TRIÂNGULO DO NORTE","lat":-19.084658296570854,"lng":-49.810150099708196,"area":13599638384.835032},{"microName":"CARANGOLA","macro":"SUDESTE","lat":-20.665296434743357,"lng":-42.123929891981376,"area":2432107591.5736947},{"microName":"TRÊS CORAÇÕES","macro":"SUL","lat":-21.653298913536872,"lng":-45.16056412165141,"area":2033564414.937213},{"microName":"ITAMBACURI","macro":"NORDESTE","lat":-18.240293628214992,"lng":-41.66735846812924,"area":3519864056.7867436},{"microName":"VARGINHA","macro":"SUL","lat":-21.737154474714018,"lng":-45.526137264685175,"area":2149415621.6173778},{"microName":"CÁSSIA","macro":"SUDOESTE","lat":-20.43241839195985,"lng":-46.92541788012917,"area":3136654632.950492},{"microName":"PIUMHI","macro":"SUDOESTE","lat":-20.417270092910346,"lng":-46.21577818741138,"area":5452454213.436644},{"microName":"PADRE PARAÍSO","macro":"NORDESTE","lat":-17.2196950066173,"lng":-41.57739132541326,"area":2694707256.311819},{"microName":"CONSELHEIRO LAFAIETE","macro":"CENTRO SUL","lat":-20.73456088785298,"lng":-43.578412844213574,"area":2790082769.8619227},{"microName":"DIAMANTINA/ITAMARANDIBA","macro":"JEQUITINHONHA","lat":-18.136277497267162,"lng":-43.342743763562346,"area":12407919994.32622},{"microName":"NANUQUE","macro":"NORDESTE","lat":-17.71107479567673,"lng":-40.710154378261265,"area":4946901234.440281},{"microName":"GUANHÃES","macro":"CENTRO","lat":-18.70708503691147,"lng":-42.99590868920037,"area":5149383519.227968},{"microName":"OLIVEIRA/SANTO ANTÔNIO DO AMPARO","macro":"OESTE","lat":-20.71028644942645,"lng":-44.7706409717321,"area":2900025849.975851},{"microName":"FRUTAL/ITURAMA","macro":"TRIÂNGULO DO SUL","lat":-19.75901258138466,"lng":-49.83260480149604,"area":13214320267.37708},{"microName":"LAVRAS","macro":"SUL","lat":-21.346051297597324,"lng":-44.91785300567521,"area":3716779949.1165833},{"microName":"JANAÚBA/MONTE AZUL","macro":"NORTE","lat":-15.364973920978553,"lng":-43.30298018704429,"area":18626463407.502373},{"microName":"MANTENA","macro":"LESTE","lat":-18.65870538450433,"lng":-41.254877797883566,"area":2199418909.1403527},{"microName":"MONTES CLAROS","macro":"NORTE","lat":-16.723193988324688,"lng":-43.8080860622604,"area":7401431197.735109},{"microName":"ITAOBIM","macro":"NORDESTE","lat":-16.54685476195956,"lng":-41.606930478954496,"area":6036905030.22562},{"microName":"PARÁ DE MINAS/NOVA SERRANA","macro":"OESTE","lat":-19.74615136123073,"lng":-44.80491900039628,"area":2686807565.1730847},{"microName":"VESPASIANO/LAGOA SANTA","macro":"CENTRO","lat":-19.41659313907165,"lng":-43.82893922251795,"area":1618119231.6888645},{"microName":"CONGONHAS","macro":"CENTRO SUL","lat":-20.603096574637938,"lng":-44.01549070175295,"area":1751021973.890242},{"microName":"CONTAGEM","macro":"CENTRO","lat":-19.94926371987237,"lng":-44.08744665716035,"area":329857002.75095683},{"microName":"CORAÇÃO DE JESUS","macro":"NORTE","lat":-16.833849817940994,"lng":-44.43357803146075,"area":5532166496.786834},{"microName":"PATOS DE MINAS","macro":"NOROESTE","lat":-18.30375547515526,"lng":-46.44748729909356,"area":18257811421.185154},{"microName":"SALINAS","macro":"NORTE","lat":-16.173303940220833,"lng":-42.2350541272636,"area":5082135354.99188},{"microName":"SÃO FRANCISCO","macro":"NORTE","lat":-16.089581642493222,"lng":-45.205090433769136,"area":9693513239.533766},{"microName":"OURO PRETO","macro":"CENTRO","lat":-20.341126753233805,"lng":-43.53520717609624,"area":2990145383.32083},{"microName":"ITAÚNA","macro":"OESTE","lat":-20.269765265200814,"lng":-44.51476484683782,"area":1483630838.1097348},{"microName":"SÃO SEBASTIÃO DO PARAÍSO","macro":"SUDOESTE","lat":-20.98908485210469,"lng":-46.95375868964806,"area":2558992835.8166757},{"microName":"MANGA","macro":"NORTE","lat":-14.593811460954445,"lng":-44.246957439008646,"area":5828327491.814011}]}